[
    {
        "id": "1",
        "city": "sandvika",
        "region": "akershus",
        "municipality": "bærum",
        "lat": "59.8979",
        "long": "10.4906"
    },
    {
        "id": "2",
        "city": "haslum",
        "region": "akershus",
        "municipality": "bærum",
        "lat": "59.9149",
        "long": "10.5563"
    },
    {
        "id": "3",
        "city": "fornebu",
        "region": "akershus",
        "municipality": "bærum",
        "lat": "59.9005",
        "long": "10.6245"
    },
    {
        "id": "4",
        "city": "jar",
        "region": "akershus",
        "municipality": "bærum",
        "lat": "59.928",
        "long": "10.6161"
    },
    {
        "id": "5",
        "city": "rud",
        "region": "akershus",
        "municipality": "bærum",
        "lat": "59.9091",
        "long": "10.4957"
    },
    {
        "id": "6",
        "city": "høvikodden",
        "region": "akershus",
        "municipality": "bærum",
        "lat": "59.8886",
        "long": "10.5535"
    },
    {
        "id": "7",
        "city": "slependen",
        "region": "akershus",
        "municipality": "bærum",
        "lat": "59.884",
        "long": "10.4887"
    },
    {
        "id": "8",
        "city": "vøyenenga",
        "region": "akershus",
        "municipality": "bærum",
        "lat": "59.9085",
        "long": "10.4739"
    },
    {
        "id": "9",
        "city": "eiksmarka",
        "region": "akershus",
        "municipality": "bærum",
        "lat": "59.9478",
        "long": "10.6182"
    },
    {
        "id": "10",
        "city": "bærums verk",
        "region": "akershus",
        "municipality": "bærum",
        "lat": "59.9418",
        "long": "10.5131"
    },
    {
        "id": "11",
        "city": "bekkestua",
        "region": "akershus",
        "municipality": "bærum",
        "lat": "59.9198",
        "long": "10.577"
    },
    {
        "id": "12",
        "city": "stabekk",
        "region": "akershus",
        "municipality": "bærum",
        "lat": "59.9095",
        "long": "10.6046"
    },
    {
        "id": "13",
        "city": "høvik",
        "region": "akershus",
        "municipality": "bærum",
        "lat": "59.8994",
        "long": "10.5721"
    },
    {
        "id": "14",
        "city": "lysaker",
        "region": "akershus",
        "municipality": "bærum",
        "lat": "59.9088",
        "long": "10.629"
    },
    {
        "id": "15",
        "city": "lommedalen",
        "region": "akershus",
        "municipality": "bærum",
        "lat": "59.9609",
        "long": "10.4829"
    },
    {
        "id": "16",
        "city": "østerås",
        "region": "akershus",
        "municipality": "bærum",
        "lat": "59.9445",
        "long": "10.6079"
    },
    {
        "id": "17",
        "city": "kolsås",
        "region": "akershus",
        "municipality": "bærum",
        "lat": "59.9185",
        "long": "10.5062"
    },
    {
        "id": "18",
        "city": "rykkinn",
        "region": "akershus",
        "municipality": "bærum",
        "lat": "59.927",
        "long": "10.4887"
    },
    {
        "id": "19",
        "city": "snarøya",
        "region": "akershus",
        "municipality": "bærum",
        "lat": "59.8801",
        "long": "10.6108"
    },
    {
        "id": "20",
        "city": "skui",
        "region": "akershus",
        "municipality": "bærum",
        "lat": "59.9288",
        "long": "10.4407"
    },
    {
        "id": "21",
        "city": "gjettum",
        "region": "akershus",
        "municipality": "bærum",
        "lat": "59.9049",
        "long": "10.5174"
    },
    {
        "id": "22",
        "city": "hosle",
        "region": "akershus",
        "municipality": "bærum",
        "lat": "59.9355",
        "long": "10.5922"
    },
    {
        "id": "23",
        "city": "blommenholm",
        "region": "akershus",
        "municipality": "bærum",
        "lat": "59.8994",
        "long": "10.5485"
    },
    {
        "id": "24",
        "city": "asker",
        "region": "akershus",
        "municipality": "asker",
        "lat": "59.8337",
        "long": "10.4122"
    },
    {
        "id": "25",
        "city": "billingstad",
        "region": "akershus",
        "municipality": "asker",
        "lat": "59.8741",
        "long": "10.4842"
    },
    {
        "id": "26",
        "city": "nesbru",
        "region": "akershus",
        "municipality": "asker",
        "lat": "59.8601",
        "long": "10.4939"
    },
    {
        "id": "27",
        "city": "heggedal",
        "region": "akershus",
        "municipality": "asker",
        "lat": "59.7869",
        "long": "10.4442"
    },
    {
        "id": "28",
        "city": "vettre",
        "region": "akershus",
        "municipality": "asker",
        "lat": "59.824",
        "long": "10.4731"
    },
    {
        "id": "29",
        "city": "borgen",
        "region": "akershus",
        "municipality": "asker",
        "lat": "59.8207",
        "long": "10.4252"
    },
    {
        "id": "30",
        "city": "vollen",
        "region": "akershus",
        "municipality": "asker",
        "lat": "59.8067",
        "long": "10.4788"
    },
    {
        "id": "31",
        "city": "hvalstad",
        "region": "akershus",
        "municipality": "asker",
        "lat": "59.8566",
        "long": "10.4663"
    },
    {
        "id": "32",
        "city": "nesøya",
        "region": "akershus",
        "municipality": "asker",
        "lat": "59.8675",
        "long": "10.5262"
    },
    {
        "id": "33",
        "city": "spikkestad",
        "region": "akershus",
        "municipality": "asker",
        "lat": "59.7386",
        "long": "10.3376"
    },
    {
        "id": "34",
        "city": "røyken",
        "region": "akershus",
        "municipality": "asker",
        "lat": "59.7444",
        "long": "10.4056"
    },
    {
        "id": "35",
        "city": "hyggen",
        "region": "akershus",
        "municipality": "asker",
        "lat": "59.7104",
        "long": "10.372"
    },
    {
        "id": "36",
        "city": "slemmestad",
        "region": "akershus",
        "municipality": "asker",
        "lat": "59.7898",
        "long": "10.4948"
    },
    {
        "id": "37",
        "city": "bødalen",
        "region": "akershus",
        "municipality": "asker",
        "lat": "59.7599",
        "long": "10.4617"
    },
    {
        "id": "38",
        "city": "åros",
        "region": "akershus",
        "municipality": "asker",
        "lat": "59.7054",
        "long": "10.5076"
    },
    {
        "id": "39",
        "city": "sætre",
        "region": "akershus",
        "municipality": "asker",
        "lat": "59.6898",
        "long": "10.5157"
    },
    {
        "id": "40",
        "city": "båtstø",
        "region": "akershus",
        "municipality": "asker",
        "lat": "59.7256",
        "long": "10.5142"
    },
    {
        "id": "41",
        "city": "nærsnes",
        "region": "akershus",
        "municipality": "asker",
        "lat": "59.7561",
        "long": "10.5059"
    },
    {
        "id": "42",
        "city": "filtvet",
        "region": "akershus",
        "municipality": "asker",
        "lat": "59.5747",
        "long": "10.6003"
    },
    {
        "id": "43",
        "city": "tofte",
        "region": "akershus",
        "municipality": "asker",
        "lat": "59.5496",
        "long": "10.5672"
    },
    {
        "id": "44",
        "city": "kana",
        "region": "akershus",
        "municipality": "asker",
        "lat": "59.5388",
        "long": "10.4743"
    },
    {
        "id": "45",
        "city": "holmsbu",
        "region": "akershus",
        "municipality": "asker",
        "lat": "59.5512",
        "long": "10.4293"
    },
    {
        "id": "46",
        "city": "klokkarstua",
        "region": "akershus",
        "municipality": "asker",
        "lat": "59.62",
        "long": "10.4474"
    },
    {
        "id": "47",
        "city": "strømmen",
        "region": "akershus",
        "municipality": "lillestrøm",
        "lat": "59.9535",
        "long": "11.0029"
    },
    {
        "id": "48",
        "city": "fetsund",
        "region": "akershus",
        "municipality": "lillestrøm",
        "lat": "59.9305",
        "long": "11.1667"
    },
    {
        "id": "49",
        "city": "gan",
        "region": "akershus",
        "municipality": "lillestrøm",
        "lat": "59.867",
        "long": "11.2387"
    },
    {
        "id": "50",
        "city": "enebakkneset",
        "region": "akershus",
        "municipality": "lillestrøm",
        "lat": "59.7803",
        "long": "11.2667"
    },
    {
        "id": "51",
        "city": "sørumsand",
        "region": "akershus",
        "municipality": "lillestrøm",
        "lat": "59.9685",
        "long": "11.2082"
    },
    {
        "id": "52",
        "city": "sørum",
        "region": "akershus",
        "municipality": "lillestrøm",
        "lat": "60.0225",
        "long": "11.2314"
    },
    {
        "id": "53",
        "city": "blaker",
        "region": "akershus",
        "municipality": "lillestrøm",
        "lat": "59.948",
        "long": "11.2068"
    },
    {
        "id": "54",
        "city": "lillestrøm",
        "region": "akershus",
        "municipality": "lillestrøm",
        "lat": "59.9481",
        "long": "11.112"
    },
    {
        "id": "55",
        "city": "kjeller",
        "region": "akershus",
        "municipality": "lillestrøm",
        "lat": "59.9752",
        "long": "11.0421"
    },
    {
        "id": "56",
        "city": "skjetten",
        "region": "akershus",
        "municipality": "lillestrøm",
        "lat": "59.9663",
        "long": "10.9954"
    },
    {
        "id": "57",
        "city": "leirsund",
        "region": "akershus",
        "municipality": "lillestrøm",
        "lat": "59.9921",
        "long": "11.0992"
    },
    {
        "id": "58",
        "city": "frogner",
        "region": "akershus",
        "municipality": "lillestrøm",
        "lat": "60.0253",
        "long": "11.1064"
    },
    {
        "id": "59",
        "city": "skedsmokorset",
        "region": "akershus",
        "municipality": "lillestrøm",
        "lat": "59.9909",
        "long": "11.0306"
    },
    {
        "id": "60",
        "city": "ski",
        "region": "akershus",
        "municipality": "nordre follo",
        "lat": "59.7136",
        "long": "10.8022"
    },
    {
        "id": "61",
        "city": "langhus",
        "region": "akershus",
        "municipality": "nordre follo",
        "lat": "59.7574",
        "long": "10.8401"
    },
    {
        "id": "62",
        "city": "siggerud",
        "region": "akershus",
        "municipality": "nordre follo",
        "lat": "59.7936",
        "long": "10.9033"
    },
    {
        "id": "63",
        "city": "kråkstad",
        "region": "akershus",
        "municipality": "nordre follo",
        "lat": "59.6754",
        "long": "10.8894"
    },
    {
        "id": "64",
        "city": "skotbu",
        "region": "akershus",
        "municipality": "nordre follo",
        "lat": "59.6618",
        "long": "10.9461"
    },
    {
        "id": "65",
        "city": "kolbotn",
        "region": "akershus",
        "municipality": "nordre follo",
        "lat": "59.8102",
        "long": "10.7985"
    },
    {
        "id": "66",
        "city": "sofiemyr",
        "region": "akershus",
        "municipality": "nordre follo",
        "lat": "59.7999",
        "long": "10.8158"
    },
    {
        "id": "67",
        "city": "tårnåsen",
        "region": "akershus",
        "municipality": "nordre follo",
        "lat": "59.8162",
        "long": "10.814"
    },
    {
        "id": "68",
        "city": "trollåsen",
        "region": "akershus",
        "municipality": "nordre follo",
        "lat": "59.8148",
        "long": "10.7817"
    },
    {
        "id": "69",
        "city": "oppegård",
        "region": "akershus",
        "municipality": "nordre follo",
        "lat": "59.7619",
        "long": "10.8198"
    },
    {
        "id": "70",
        "city": "svartskog",
        "region": "akershus",
        "municipality": "nordre follo",
        "lat": "59.7901",
        "long": "10.7472"
    },
    {
        "id": "71",
        "city": "kløfta",
        "region": "akershus",
        "municipality": "ullensaker",
        "lat": "60.0539",
        "long": "11.1413"
    },
    {
        "id": "72",
        "city": "jessheim",
        "region": "akershus",
        "municipality": "ullensaker",
        "lat": "60.1392",
        "long": "11.167"
    },
    {
        "id": "73",
        "city": "mogreina",
        "region": "akershus",
        "municipality": "ullensaker",
        "lat": "60.2346",
        "long": "11.1994"
    },
    {
        "id": "74",
        "city": "nordkisa",
        "region": "akershus",
        "municipality": "ullensaker",
        "lat": "60.1863",
        "long": "11.256"
    },
    {
        "id": "75",
        "city": "algarheim",
        "region": "akershus",
        "municipality": "ullensaker",
        "lat": "60.15",
        "long": "11.3234"
    },
    {
        "id": "76",
        "city": "sessvollmoen",
        "region": "akershus",
        "municipality": "ullensaker",
        "lat": "60.2343",
        "long": "11.1451"
    },
    {
        "id": "77",
        "city": "gardermoen",
        "region": "akershus",
        "municipality": "ullensaker",
        "lat": "60.1993",
        "long": "11.074"
    },
    {
        "id": "78",
        "city": "nesoddtangen",
        "region": "akershus",
        "municipality": "nesodden",
        "lat": "59.8621",
        "long": "10.6619"
    },
    {
        "id": "79",
        "city": "bjørnemyr",
        "region": "akershus",
        "municipality": "nesodden",
        "lat": "59.8275",
        "long": "10.6355"
    },
    {
        "id": "80",
        "city": "fagerstrand",
        "region": "akershus",
        "municipality": "nesodden",
        "lat": "59.7423",
        "long": "10.6012"
    },
    {
        "id": "81",
        "city": "fjellstrand",
        "region": "akershus",
        "municipality": "nesodden",
        "lat": "59.7929",
        "long": "10.615"
    },
    {
        "id": "82",
        "city": "nesodden",
        "region": "akershus",
        "municipality": "nesodden",
        "lat": "59.8223",
        "long": "10.6884"
    },
    {
        "id": "83",
        "city": "drøbak",
        "region": "akershus",
        "municipality": "frogn",
        "lat": "59.6629",
        "long": "10.6313"
    },
    {
        "id": "84",
        "city": "nordre frogn",
        "region": "akershus",
        "municipality": "frogn",
        "lat": "59.7599",
        "long": "10.6592"
    },
    {
        "id": "85",
        "city": "vestby",
        "region": "akershus",
        "municipality": "vestby",
        "lat": "59.5827",
        "long": "10.8441"
    },
    {
        "id": "86",
        "city": "hvitsten",
        "region": "akershus",
        "municipality": "vestby",
        "lat": "59.5954",
        "long": "10.6598"
    },
    {
        "id": "87",
        "city": "hølen",
        "region": "akershus",
        "municipality": "vestby",
        "lat": "59.5407",
        "long": "10.7398"
    },
    {
        "id": "88",
        "city": "son",
        "region": "akershus",
        "municipality": "vestby",
        "lat": "59.5693",
        "long": "10.7362"
    },
    {
        "id": "89",
        "city": "vinterbro",
        "region": "akershus",
        "municipality": "ås",
        "lat": "59.7344",
        "long": "10.7545"
    },
    {
        "id": "90",
        "city": "ås",
        "region": "akershus",
        "municipality": "ås",
        "lat": "59.656",
        "long": "10.7879"
    },
    {
        "id": "91",
        "city": "flateby",
        "region": "akershus",
        "municipality": "enebakk",
        "lat": "59.8301",
        "long": "11.1447"
    },
    {
        "id": "92",
        "city": "enebakk",
        "region": "akershus",
        "municipality": "enebakk",
        "lat": "59.7444",
        "long": "11.1612"
    },
    {
        "id": "93",
        "city": "ytre enebakk",
        "region": "akershus",
        "municipality": "enebakk",
        "lat": "59.7641",
        "long": "10.9525"
    },
    {
        "id": "94",
        "city": "lørenskog",
        "region": "akershus",
        "municipality": "lørenskog",
        "lat": "59.938",
        "long": "10.9548"
    },
    {
        "id": "95",
        "city": "fjellhamar",
        "region": "akershus",
        "municipality": "lørenskog",
        "lat": "59.9399",
        "long": "10.9828"
    },
    {
        "id": "96",
        "city": "finstadjordet",
        "region": "akershus",
        "municipality": "lørenskog",
        "lat": "59.9131",
        "long": "10.9662"
    },
    {
        "id": "97",
        "city": "rasta",
        "region": "akershus",
        "municipality": "lørenskog",
        "lat": "59.9184",
        "long": "10.9381"
    },
    {
        "id": "98",
        "city": "kurland",
        "region": "akershus",
        "municipality": "lørenskog",
        "lat": "59.9328",
        "long": "11.022"
    },
    {
        "id": "99",
        "city": "rælingen",
        "region": "akershus",
        "municipality": "rælingen",
        "lat": "59.9452",
        "long": "11.042"
    },
    {
        "id": "100",
        "city": "løvenstad",
        "region": "akershus",
        "municipality": "rælingen",
        "lat": "59.9398",
        "long": "11.0224"
    },
    {
        "id": "101",
        "city": "fjerdingby",
        "region": "akershus",
        "municipality": "rælingen",
        "lat": "59.9186",
        "long": "11.0786"
    },
    {
        "id": "102",
        "city": "nordby",
        "region": "akershus",
        "municipality": "rælingen",
        "lat": "59.8649",
        "long": "11.0968"
    },
    {
        "id": "103",
        "city": "blystadlia",
        "region": "akershus",
        "municipality": "rælingen",
        "lat": "59.9317",
        "long": "11.04"
    },
    {
        "id": "104",
        "city": "aurskog",
        "region": "akershus",
        "municipality": "aurskog-høland",
        "lat": "59.8202",
        "long": "11.6132"
    },
    {
        "id": "105",
        "city": "bjørkelangen",
        "region": "akershus",
        "municipality": "aurskog-høland",
        "lat": "59.879",
        "long": "11.5629"
    },
    {
        "id": "106",
        "city": "rømskog",
        "region": "akershus",
        "municipality": "aurskog-høland",
        "lat": "59.7348",
        "long": "11.8043"
    },
    {
        "id": "107",
        "city": "setskog",
        "region": "akershus",
        "municipality": "aurskog-høland",
        "lat": "59.8226",
        "long": "11.7125"
    },
    {
        "id": "108",
        "city": "løken",
        "region": "akershus",
        "municipality": "aurskog-høland",
        "lat": "59.7967",
        "long": "11.4476"
    },
    {
        "id": "109",
        "city": "fosser",
        "region": "akershus",
        "municipality": "aurskog-høland",
        "lat": "59.822",
        "long": "11.4951"
    },
    {
        "id": "110",
        "city": "hemnes",
        "region": "akershus",
        "municipality": "aurskog-høland",
        "lat": "59.7106",
        "long": "11.4754"
    },
    {
        "id": "111",
        "city": "rånåsfoss",
        "region": "akershus",
        "municipality": "nes",
        "lat": "60.1401",
        "long": "11.4996"
    },
    {
        "id": "112",
        "city": "auli",
        "region": "akershus",
        "municipality": "nes",
        "lat": "60.0403",
        "long": "11.3705"
    },
    {
        "id": "113",
        "city": "årnes",
        "region": "akershus",
        "municipality": "nes",
        "lat": "60.3436",
        "long": "11.6484"
    },
    {
        "id": "114",
        "city": "vormsund",
        "region": "akershus",
        "municipality": "nes",
        "lat": "60.3436",
        "long": "11.6484"
    },
    {
        "id": "115",
        "city": "brårud",
        "region": "akershus",
        "municipality": "nes",
        "lat": "60.3436",
        "long": "11.6484"
    },
    {
        "id": "116",
        "city": "skogbygda",
        "region": "akershus",
        "municipality": "nes",
        "lat": "60.3436",
        "long": "11.6484"
    },
    {
        "id": "117",
        "city": "hvam",
        "region": "akershus",
        "municipality": "nes",
        "lat": "60.3436",
        "long": "11.6484"
    },
    {
        "id": "118",
        "city": "oppaker",
        "region": "akershus",
        "municipality": "nes",
        "lat": "60.3436",
        "long": "11.6484"
    },
    {
        "id": "119",
        "city": "fenstad",
        "region": "akershus",
        "municipality": "nes",
        "lat": "60.3436",
        "long": "11.6484"
    },
    {
        "id": "120",
        "city": "gjerdrum",
        "region": "akershus",
        "municipality": "gjerdrum",
        "lat": "60.0774",
        "long": "11.0245"
    },
    {
        "id": "121",
        "city": "slattum",
        "region": "akershus",
        "municipality": "nittedal",
        "lat": "60.0169",
        "long": "10.9151"
    },
    {
        "id": "122",
        "city": "hagan",
        "region": "akershus",
        "municipality": "nittedal",
        "lat": "59.975",
        "long": "10.9391"
    },
    {
        "id": "123",
        "city": "nittedal",
        "region": "akershus",
        "municipality": "nittedal",
        "lat": "60.0543",
        "long": "10.8673"
    },
    {
        "id": "124",
        "city": "hakadal",
        "region": "akershus",
        "municipality": "nittedal",
        "lat": "60.0897",
        "long": "10.8724"
    },
    {
        "id": "125",
        "city": "roa",
        "region": "akershus",
        "municipality": "lunner",
        "lat": "60.399",
        "long": "10.5357"
    },
    {
        "id": "126",
        "city": "lunner",
        "region": "akershus",
        "municipality": "lunner",
        "lat": "60.399",
        "long": "10.5357"
    },
    {
        "id": "127",
        "city": "harestua",
        "region": "akershus",
        "municipality": "lunner",
        "lat": "60.399",
        "long": "10.5357"
    },
    {
        "id": "128",
        "city": "grua",
        "region": "akershus",
        "municipality": "lunner",
        "lat": "60.399",
        "long": "10.5357"
    },
    {
        "id": "129",
        "city": "grindvoll",
        "region": "akershus",
        "municipality": "lunner",
        "lat": "60.3957",
        "long": "10.5402"
    },
    {
        "id": "130",
        "city": "jevnaker",
        "region": "akershus",
        "municipality": "jevnaker",
        "lat": "60.2802",
        "long": "10.3923"
    },
    {
        "id": "131",
        "city": "nannestad",
        "region": "akershus",
        "municipality": "nannestad",
        "lat": "60.2155",
        "long": "11.0143"
    },
    {
        "id": "132",
        "city": "maura",
        "region": "akershus",
        "municipality": "nannestad",
        "lat": "60.2635",
        "long": "11.0335"
    },
    {
        "id": "133",
        "city": "åsgreina",
        "region": "akershus",
        "municipality": "nannestad",
        "lat": "60.1684",
        "long": "10.9903"
    },
    {
        "id": "134",
        "city": "holter",
        "region": "akershus",
        "municipality": "nannestad",
        "lat": "60.1089",
        "long": "11.0385"
    },
    {
        "id": "135",
        "city": "råholt",
        "region": "akershus",
        "municipality": "eidsvoll",
        "lat": "60.274",
        "long": "11.1806"
    },
    {
        "id": "136",
        "city": "dal",
        "region": "akershus",
        "municipality": "eidsvoll",
        "lat": "60.252",
        "long": "11.1806"
    },
    {
        "id": "137",
        "city": "bøn",
        "region": "akershus",
        "municipality": "eidsvoll",
        "lat": "60.2893",
        "long": "11.2019"
    },
    {
        "id": "138",
        "city": "eidsvoll verk",
        "region": "akershus",
        "municipality": "eidsvoll",
        "lat": "60.2919",
        "long": "11.1589"
    },
    {
        "id": "139",
        "city": "eidsvoll",
        "region": "akershus",
        "municipality": "eidsvoll",
        "lat": "60.3307",
        "long": "11.2634"
    },
    {
        "id": "140",
        "city": "minnesund",
        "region": "akershus",
        "municipality": "eidsvoll",
        "lat": "60.4087",
        "long": "11.232"
    },
    {
        "id": "141",
        "city": "feiring",
        "region": "akershus",
        "municipality": "eidsvoll",
        "lat": "60.5002",
        "long": "11.161"
    },
    {
        "id": "142",
        "city": "hurdal",
        "region": "akershus",
        "municipality": "hurdal",
        "lat": "60.4305",
        "long": "10.9492"
    },
    {
        "id": "143",
        "city": "drammen",
        "region": "buskerud",
        "municipality": "drammen",
        "lat": "59.7491",
        "long": "10.1985"
    },
    {
        "id": "144",
        "city": "mjøndalen",
        "region": "buskerud",
        "municipality": "drammen",
        "lat": "59.7439",
        "long": "10.0196"
    },
    {
        "id": "145",
        "city": "steinberg",
        "region": "buskerud",
        "municipality": "drammen",
        "lat": "59.7529",
        "long": "9.9508"
    },
    {
        "id": "146",
        "city": "krokstadelva",
        "region": "buskerud",
        "municipality": "drammen",
        "lat": "59.764",
        "long": "10.015"
    },
    {
        "id": "147",
        "city": "solbergelva",
        "region": "buskerud",
        "municipality": "drammen",
        "lat": "59.7659",
        "long": "10.0803"
    },
    {
        "id": "148",
        "city": "solbergmoen",
        "region": "buskerud",
        "municipality": "drammen",
        "lat": "59.7597",
        "long": "10.0521"
    },
    {
        "id": "149",
        "city": "svelvik",
        "region": "buskerud",
        "municipality": "drammen",
        "lat": "59.6281",
        "long": "10.3889"
    },
    {
        "id": "150",
        "city": "berger",
        "region": "buskerud",
        "municipality": "drammen",
        "lat": "59.5513",
        "long": "10.3862"
    },
    {
        "id": "151",
        "city": "kongsberg",
        "region": "buskerud",
        "municipality": "kongsberg",
        "lat": "59.6509",
        "long": "9.6655"
    },
    {
        "id": "152",
        "city": "heistadmoen",
        "region": "buskerud",
        "municipality": "kongsberg",
        "lat": "59.5981",
        "long": "9.6648"
    },
    {
        "id": "153",
        "city": "skollenborg",
        "region": "buskerud",
        "municipality": "kongsberg",
        "lat": "59.5734",
        "long": "9.6813"
    },
    {
        "id": "154",
        "city": "hvittingfoss",
        "region": "buskerud",
        "municipality": "kongsberg",
        "lat": "59.4984",
        "long": "9.9772"
    },
    {
        "id": "155",
        "city": "passebekk",
        "region": "buskerud",
        "municipality": "kongsberg",
        "lat": "59.5782",
        "long": "9.668"
    },
    {
        "id": "156",
        "city": "hønefoss",
        "region": "buskerud",
        "municipality": "ringerike",
        "lat": "60.5565",
        "long": "10.0877"
    },
    {
        "id": "157",
        "city": "nes i ådal",
        "region": "buskerud",
        "municipality": "ringerike",
        "lat": "60.5565",
        "long": "10.0877"
    },
    {
        "id": "158",
        "city": "hallingby",
        "region": "buskerud",
        "municipality": "ringerike",
        "lat": "60.5565",
        "long": "10.0877"
    },
    {
        "id": "159",
        "city": "tyristrand",
        "region": "buskerud",
        "municipality": "ringerike",
        "lat": "60.5565",
        "long": "10.0877"
    },
    {
        "id": "160",
        "city": "sokna",
        "region": "buskerud",
        "municipality": "ringerike",
        "lat": "60.5565",
        "long": "10.0877"
    },
    {
        "id": "161",
        "city": "røyse",
        "region": "buskerud",
        "municipality": "hole",
        "lat": "60.5565",
        "long": "10.0877"
    },
    {
        "id": "162",
        "city": "krokkleiva",
        "region": "buskerud",
        "municipality": "hole",
        "lat": "60.5565",
        "long": "10.0877"
    },
    {
        "id": "163",
        "city": "sollihøgda",
        "region": "buskerud",
        "municipality": "hole",
        "lat": "60.0448",
        "long": "10.2946"
    },
    {
        "id": "164",
        "city": "lier",
        "region": "buskerud",
        "municipality": "lier",
        "lat": "59.7749",
        "long": "10.2292"
    },
    {
        "id": "165",
        "city": "tranby",
        "region": "buskerud",
        "municipality": "lier",
        "lat": "59.832",
        "long": "10.2637"
    },
    {
        "id": "166",
        "city": "sylling",
        "region": "buskerud",
        "municipality": "lier",
        "lat": "59.9053",
        "long": "10.2741"
    },
    {
        "id": "167",
        "city": "lierstranda",
        "region": "buskerud",
        "municipality": "lier",
        "lat": "59.7553",
        "long": "10.2565"
    },
    {
        "id": "168",
        "city": "lierskogen",
        "region": "buskerud",
        "municipality": "lier",
        "lat": "59.82",
        "long": "10.3245"
    },
    {
        "id": "169",
        "city": "reistad",
        "region": "buskerud",
        "municipality": "lier",
        "lat": "59.7828",
        "long": "10.2826"
    },
    {
        "id": "170",
        "city": "gullaug",
        "region": "buskerud",
        "municipality": "lier",
        "lat": "59.7569",
        "long": "10.2898"
    },
    {
        "id": "171",
        "city": "hokksund",
        "region": "buskerud",
        "municipality": "øvre eiker",
        "lat": "59.7669",
        "long": "9.9171"
    },
    {
        "id": "172",
        "city": "vestfossen",
        "region": "buskerud",
        "municipality": "øvre eiker",
        "lat": "59.733",
        "long": "9.8635"
    },
    {
        "id": "173",
        "city": "fiskum",
        "region": "buskerud",
        "municipality": "øvre eiker",
        "lat": "59.6857",
        "long": "9.8028"
    },
    {
        "id": "174",
        "city": "skotselv",
        "region": "buskerud",
        "municipality": "øvre eiker",
        "lat": "59.8795",
        "long": "9.82"
    },
    {
        "id": "175",
        "city": "åmot",
        "region": "buskerud",
        "municipality": "modum",
        "lat": "59.9036",
        "long": "9.9142"
    },
    {
        "id": "176",
        "city": "geithus",
        "region": "buskerud",
        "municipality": "modum",
        "lat": "59.9282",
        "long": "9.9656"
    },
    {
        "id": "177",
        "city": "vikersund",
        "region": "buskerud",
        "municipality": "modum",
        "lat": "59.9868",
        "long": "9.9911"
    },
    {
        "id": "178",
        "city": "krøderen",
        "region": "buskerud",
        "municipality": "krødsherad",
        "lat": "60.5565",
        "long": "10.0877"
    },
    {
        "id": "179",
        "city": "noresund",
        "region": "buskerud",
        "municipality": "krødsherad",
        "lat": "60.5565",
        "long": "10.0877"
    },
    {
        "id": "180",
        "city": "flå",
        "region": "buskerud",
        "municipality": "flå",
        "lat": "60.5565",
        "long": "10.0877"
    },
    {
        "id": "181",
        "city": "nesbyen",
        "region": "buskerud",
        "municipality": "nesbyen",
        "lat": "60.5565",
        "long": "10.0877"
    },
    {
        "id": "182",
        "city": "gol",
        "region": "buskerud",
        "municipality": "gol",
        "lat": "60.5565",
        "long": "10.0877"
    },
    {
        "id": "183",
        "city": "hemsedal",
        "region": "buskerud",
        "municipality": "hemsedal",
        "lat": "60.5565",
        "long": "10.0877"
    },
    {
        "id": "184",
        "city": "ål",
        "region": "buskerud",
        "municipality": "ål",
        "lat": "60.5565",
        "long": "10.0877"
    },
    {
        "id": "185",
        "city": "torpo",
        "region": "buskerud",
        "municipality": "ål",
        "lat": "60.5565",
        "long": "10.0877"
    },
    {
        "id": "186",
        "city": "hol",
        "region": "buskerud",
        "municipality": "hol",
        "lat": "60.5565",
        "long": "10.0877"
    },
    {
        "id": "187",
        "city": "hovet",
        "region": "buskerud",
        "municipality": "hol",
        "lat": "60.5565",
        "long": "10.0877"
    },
    {
        "id": "188",
        "city": "geilo",
        "region": "buskerud",
        "municipality": "hol",
        "lat": "60.5703",
        "long": "8.0111"
    },
    {
        "id": "189",
        "city": "dagali",
        "region": "buskerud",
        "municipality": "hol",
        "lat": "60.5565",
        "long": "10.0877"
    },
    {
        "id": "190",
        "city": "ustaoset",
        "region": "buskerud",
        "municipality": "hol",
        "lat": "60.5565",
        "long": "10.0877"
    },
    {
        "id": "191",
        "city": "haugastøl",
        "region": "buskerud",
        "municipality": "hol",
        "lat": "60.5565",
        "long": "10.0877"
    },
    {
        "id": "192",
        "city": "prestfoss",
        "region": "buskerud",
        "municipality": "sigdal",
        "lat": "60.037",
        "long": "9.616"
    },
    {
        "id": "193",
        "city": "solumsmoen",
        "region": "buskerud",
        "municipality": "sigdal",
        "lat": "59.9563",
        "long": "9.7799"
    },
    {
        "id": "194",
        "city": "eggedal",
        "region": "buskerud",
        "municipality": "sigdal",
        "lat": "60.2769",
        "long": "9.32"
    },
    {
        "id": "195",
        "city": "nedre eggedal",
        "region": "buskerud",
        "municipality": "sigdal",
        "lat": "60.1351",
        "long": "9.397"
    },
    {
        "id": "196",
        "city": "flesberg",
        "region": "buskerud",
        "municipality": "flesberg",
        "lat": "59.8481",
        "long": "9.4926"
    },
    {
        "id": "197",
        "city": "lampeland",
        "region": "buskerud",
        "municipality": "flesberg",
        "lat": "59.805",
        "long": "9.4632"
    },
    {
        "id": "198",
        "city": "svene",
        "region": "buskerud",
        "municipality": "flesberg",
        "lat": "59.7781",
        "long": "9.5297"
    },
    {
        "id": "199",
        "city": "lyngdal i numedal",
        "region": "buskerud",
        "municipality": "flesberg",
        "lat": "59.9302",
        "long": "9.5095"
    },
    {
        "id": "200",
        "city": "rollag",
        "region": "buskerud",
        "municipality": "rollag",
        "lat": "59.9854",
        "long": "9.2984"
    },
    {
        "id": "201",
        "city": "veggli",
        "region": "buskerud",
        "municipality": "rollag",
        "lat": "60.0351",
        "long": "9.0866"
    },
    {
        "id": "202",
        "city": "tunhovd",
        "region": "buskerud",
        "municipality": "nore og uvdal",
        "lat": "60.5565",
        "long": "10.0877"
    },
    {
        "id": "203",
        "city": "nore",
        "region": "buskerud",
        "municipality": "nore og uvdal",
        "lat": "60.1742",
        "long": "9.0077"
    },
    {
        "id": "204",
        "city": "rødberg",
        "region": "buskerud",
        "municipality": "nore og uvdal",
        "lat": "60.3134",
        "long": "8.9518"
    },
    {
        "id": "205",
        "city": "uvdal",
        "region": "buskerud",
        "municipality": "nore og uvdal",
        "lat": "60.3043",
        "long": "8.5594"
    },
    {
        "id": "206",
        "city": "alta",
        "region": "finnmark",
        "municipality": "alta",
        "lat": "69.9706",
        "long": "23.2866"
    },
    {
        "id": "207",
        "city": "kviby",
        "region": "finnmark",
        "municipality": "alta",
        "lat": "70.1454",
        "long": "23.3672"
    },
    {
        "id": "208",
        "city": "kvalfjord",
        "region": "finnmark",
        "municipality": "alta",
        "lat": "70.3098",
        "long": "22.8465"
    },
    {
        "id": "209",
        "city": "hakkstabben",
        "region": "finnmark",
        "municipality": "alta",
        "lat": "70.3061",
        "long": "23.0813"
    },
    {
        "id": "210",
        "city": "kongshus",
        "region": "finnmark",
        "municipality": "alta",
        "lat": "70.1398",
        "long": "23.2334"
    },
    {
        "id": "211",
        "city": "korsfjorden",
        "region": "finnmark",
        "municipality": "alta",
        "lat": "70.2764",
        "long": "23.4358"
    },
    {
        "id": "212",
        "city": "tverrelvdalen",
        "region": "finnmark",
        "municipality": "alta",
        "lat": "69.9841",
        "long": "23.2483"
    },
    {
        "id": "213",
        "city": "talvik",
        "region": "finnmark",
        "municipality": "alta",
        "lat": "70.0561",
        "long": "22.9209"
    },
    {
        "id": "214",
        "city": "langfjordbotn",
        "region": "finnmark",
        "municipality": "alta",
        "lat": "70.0498",
        "long": "22.4048"
    },
    {
        "id": "215",
        "city": "hammerfest",
        "region": "finnmark",
        "municipality": "hammerfest",
        "lat": "70.6628",
        "long": "23.6818"
    },
    {
        "id": "216",
        "city": "nordre seiland",
        "region": "finnmark",
        "municipality": "hammerfest",
        "lat": "70.5502",
        "long": "23.4747"
    },
    {
        "id": "217",
        "city": "rypefjord",
        "region": "finnmark",
        "municipality": "hammerfest",
        "lat": "70.6348",
        "long": "23.672"
    },
    {
        "id": "218",
        "city": "forsøl",
        "region": "finnmark",
        "municipality": "hammerfest",
        "lat": "70.7167",
        "long": "23.8128"
    },
    {
        "id": "219",
        "city": "kvalsund",
        "region": "finnmark",
        "municipality": "hammerfest",
        "lat": "70.4406",
        "long": "24.1542"
    },
    {
        "id": "220",
        "city": "revsneshamn",
        "region": "finnmark",
        "municipality": "hammerfest",
        "lat": "70.6813",
        "long": "24.3489"
    },
    {
        "id": "221",
        "city": "akkarfjord",
        "region": "finnmark",
        "municipality": "hammerfest",
        "lat": "70.7971",
        "long": "23.4076"
    },
    {
        "id": "222",
        "city": "langstrand",
        "region": "finnmark",
        "municipality": "hammerfest",
        "lat": "70.6586",
        "long": "23.1225"
    },
    {
        "id": "223",
        "city": "kårhamn",
        "region": "finnmark",
        "municipality": "hammerfest",
        "lat": "70.522",
        "long": "23.1702"
    },
    {
        "id": "224",
        "city": "sandøybotn",
        "region": "finnmark",
        "municipality": "hammerfest",
        "lat": "70.6844",
        "long": "22.978"
    },
    {
        "id": "225",
        "city": "kokelv",
        "region": "finnmark",
        "municipality": "hammerfest",
        "lat": "70.5487",
        "long": "24.877"
    },
    {
        "id": "226",
        "city": "kirkenes",
        "region": "finnmark",
        "municipality": "sør-varanger",
        "lat": "69.7197",
        "long": "30.1604"
    },
    {
        "id": "227",
        "city": "bjørnevatn",
        "region": "finnmark",
        "municipality": "sør-varanger",
        "lat": "69.6429",
        "long": "29.9883"
    },
    {
        "id": "228",
        "city": "jarfjord",
        "region": "finnmark",
        "municipality": "sør-varanger",
        "lat": "69.6731",
        "long": "30.3116"
    },
    {
        "id": "229",
        "city": "hesseng",
        "region": "finnmark",
        "municipality": "sør-varanger",
        "lat": "69.6972",
        "long": "29.9543"
    },
    {
        "id": "230",
        "city": "svanvik",
        "region": "finnmark",
        "municipality": "sør-varanger",
        "lat": "69.3787",
        "long": "29.6512"
    },
    {
        "id": "231",
        "city": "pasvik",
        "region": "finnmark",
        "municipality": "sør-varanger",
        "lat": "69.6278",
        "long": "29.6223"
    },
    {
        "id": "232",
        "city": "neiden",
        "region": "finnmark",
        "municipality": "sør-varanger",
        "lat": "69.7412",
        "long": "29.3962"
    },
    {
        "id": "233",
        "city": "bugøynes",
        "region": "finnmark",
        "municipality": "sør-varanger",
        "lat": "69.9782",
        "long": "29.5746"
    },
    {
        "id": "234",
        "city": "vadsø",
        "region": "finnmark",
        "municipality": "vadsø",
        "lat": "70.0878",
        "long": "29.798"
    },
    {
        "id": "235",
        "city": "vestre jakobselv",
        "region": "finnmark",
        "municipality": "vadsø",
        "lat": "70.13",
        "long": "29.3441"
    },
    {
        "id": "236",
        "city": "karasjok",
        "region": "finnmark",
        "municipality": "karasjohka karasjok",
        "lat": "69.46",
        "long": "25.453"
    },
    {
        "id": "237",
        "city": "kautokeino",
        "region": "finnmark",
        "municipality": "guovdageaidnu kautokeino",
        "lat": "69.015",
        "long": "23.195"
    },
    {
        "id": "238",
        "city": "maze",
        "region": "finnmark",
        "municipality": "guovdageaidnu kautokeino",
        "lat": "69.5104",
        "long": "23.526"
    },
    {
        "id": "239",
        "city": "andsnes",
        "region": "finnmark",
        "municipality": "loppa",
        "lat": "70.2326",
        "long": "21.2338"
    },
    {
        "id": "240",
        "city": "øksfjord",
        "region": "finnmark",
        "municipality": "loppa",
        "lat": "70.211",
        "long": "22.3847"
    },
    {
        "id": "241",
        "city": "øksfjorden",
        "region": "finnmark",
        "municipality": "loppa",
        "lat": "70.2134",
        "long": "21.9503"
    },
    {
        "id": "242",
        "city": "bergsfjord",
        "region": "finnmark",
        "municipality": "loppa",
        "lat": "70.2533",
        "long": "21.7861"
    },
    {
        "id": "243",
        "city": "nuvsvåg",
        "region": "finnmark",
        "municipality": "loppa",
        "lat": "70.2596",
        "long": "22.1453"
    },
    {
        "id": "244",
        "city": "langfjordhamn",
        "region": "finnmark",
        "municipality": "loppa",
        "lat": "70.1399",
        "long": "21.8586"
    },
    {
        "id": "245",
        "city": "sør-tverrfjord",
        "region": "finnmark",
        "municipality": "loppa",
        "lat": "70.217",
        "long": "21.7108"
    },
    {
        "id": "246",
        "city": "sandland",
        "region": "finnmark",
        "municipality": "loppa",
        "lat": "70.2716",
        "long": "21.5858"
    },
    {
        "id": "247",
        "city": "loppa",
        "region": "finnmark",
        "municipality": "loppa",
        "lat": "70.3402",
        "long": "21.4459"
    },
    {
        "id": "248",
        "city": "skavnakk",
        "region": "finnmark",
        "municipality": "loppa",
        "lat": "70.2134",
        "long": "21.9503"
    },
    {
        "id": "249",
        "city": "hasvik",
        "region": "finnmark",
        "municipality": "hasvik",
        "lat": "70.4882",
        "long": "22.1959"
    },
    {
        "id": "250",
        "city": "breivikbotn",
        "region": "finnmark",
        "municipality": "hasvik",
        "lat": "70.6047",
        "long": "22.3724"
    },
    {
        "id": "251",
        "city": "sørvær",
        "region": "finnmark",
        "municipality": "hasvik",
        "lat": "70.5615",
        "long": "22.4783"
    },
    {
        "id": "252",
        "city": "tufjord",
        "region": "finnmark",
        "municipality": "måsøy",
        "lat": "70.9925",
        "long": "24.0468"
    },
    {
        "id": "253",
        "city": "ingøy",
        "region": "finnmark",
        "municipality": "måsøy",
        "lat": "71.0721",
        "long": "24.0524"
    },
    {
        "id": "254",
        "city": "havøysund",
        "region": "finnmark",
        "municipality": "måsøy",
        "lat": "71.0023",
        "long": "24.6666"
    },
    {
        "id": "255",
        "city": "måsøy",
        "region": "finnmark",
        "municipality": "måsøy",
        "lat": "70.835",
        "long": "24.7851"
    },
    {
        "id": "256",
        "city": "snefjord",
        "region": "finnmark",
        "municipality": "måsøy",
        "lat": "70.7745",
        "long": "24.6077"
    },
    {
        "id": "257",
        "city": "honningsvåg",
        "region": "finnmark",
        "municipality": "nordkapp",
        "lat": "70.9902",
        "long": "25.9414"
    },
    {
        "id": "258",
        "city": "nordvågen",
        "region": "finnmark",
        "municipality": "nordkapp",
        "lat": "70.979",
        "long": "26.0405"
    },
    {
        "id": "259",
        "city": "kamøyvær",
        "region": "finnmark",
        "municipality": "nordkapp",
        "lat": "70.9252",
        "long": "25.8189"
    },
    {
        "id": "260",
        "city": "skarsvåg",
        "region": "finnmark",
        "municipality": "nordkapp",
        "lat": "71.1108",
        "long": "25.8197"
    },
    {
        "id": "261",
        "city": "nordkapp",
        "region": "finnmark",
        "municipality": "nordkapp",
        "lat": "70.9252",
        "long": "25.8189"
    },
    {
        "id": "262",
        "city": "gjesvær",
        "region": "finnmark",
        "municipality": "nordkapp",
        "lat": "71.0977",
        "long": "25.3817"
    },
    {
        "id": "263",
        "city": "sarnes",
        "region": "finnmark",
        "municipality": "nordkapp",
        "lat": "70.9252",
        "long": "25.8189"
    },
    {
        "id": "264",
        "city": "repvåg",
        "region": "finnmark",
        "municipality": "nordkapp",
        "lat": "70.8116",
        "long": "25.681"
    },
    {
        "id": "265",
        "city": "lakselv",
        "region": "finnmark",
        "municipality": "porsanger porsángu porsanki",
        "lat": "70.0477",
        "long": "24.997"
    },
    {
        "id": "266",
        "city": "porsangmoen",
        "region": "finnmark",
        "municipality": "porsanger porsángu porsanki",
        "lat": "69.9034",
        "long": "25.0424"
    },
    {
        "id": "267",
        "city": "indre billefjord",
        "region": "finnmark",
        "municipality": "porsanger porsángu porsanki",
        "lat": "70.267",
        "long": "24.9786"
    },
    {
        "id": "268",
        "city": "russenes",
        "region": "finnmark",
        "municipality": "porsanger porsángu porsanki",
        "lat": "70.1537",
        "long": "25.1283"
    },
    {
        "id": "269",
        "city": "børselv",
        "region": "finnmark",
        "municipality": "porsanger porsángu porsanki",
        "lat": "70.3752",
        "long": "25.6108"
    },
    {
        "id": "270",
        "city": "skoganvarre",
        "region": "finnmark",
        "municipality": "porsanger porsángu porsanki",
        "lat": "69.8204",
        "long": "25.1285"
    },
    {
        "id": "271",
        "city": "veidnes",
        "region": "finnmark",
        "municipality": "lebesby",
        "lat": "70.4789",
        "long": "26.7617"
    },
    {
        "id": "272",
        "city": "lebesby",
        "region": "finnmark",
        "municipality": "lebesby",
        "lat": "70.5549",
        "long": "27.0886"
    },
    {
        "id": "273",
        "city": "kunes",
        "region": "finnmark",
        "municipality": "lebesby",
        "lat": "70.4789",
        "long": "26.7617"
    },
    {
        "id": "274",
        "city": "dyfjord",
        "region": "finnmark",
        "municipality": "lebesby",
        "lat": "70.8979",
        "long": "27.2568"
    },
    {
        "id": "275",
        "city": "kjøllefjord",
        "region": "finnmark",
        "municipality": "lebesby",
        "lat": "70.9446",
        "long": "27.3697"
    },
    {
        "id": "276",
        "city": "mehamn",
        "region": "finnmark",
        "municipality": "gamvik",
        "lat": "71.0321",
        "long": "27.8564"
    },
    {
        "id": "277",
        "city": "skjånes",
        "region": "finnmark",
        "municipality": "gamvik",
        "lat": "70.8008",
        "long": "28.0376"
    },
    {
        "id": "278",
        "city": "langfjordnes",
        "region": "finnmark",
        "municipality": "gamvik",
        "lat": "70.7181",
        "long": "28.0795"
    },
    {
        "id": "279",
        "city": "nervei",
        "region": "finnmark",
        "municipality": "gamvik",
        "lat": "70.6368",
        "long": "27.7341"
    },
    {
        "id": "280",
        "city": "gamvik",
        "region": "finnmark",
        "municipality": "gamvik",
        "lat": "70.7937",
        "long": "27.8979"
    },
    {
        "id": "281",
        "city": "sirma",
        "region": "finnmark",
        "municipality": "deatnu tana",
        "lat": "69.9782",
        "long": "27.0832"
    },
    {
        "id": "282",
        "city": "tana",
        "region": "finnmark",
        "municipality": "deatnu tana",
        "lat": "70.2133",
        "long": "27.6227"
    },
    {
        "id": "283",
        "city": "berlevåg",
        "region": "finnmark",
        "municipality": "berlevåg",
        "lat": "70.7994",
        "long": "29.0677"
    },
    {
        "id": "284",
        "city": "kongsfjord",
        "region": "finnmark",
        "municipality": "berlevåg",
        "lat": "70.7207",
        "long": "29.3242"
    },
    {
        "id": "285",
        "city": "båtsfjord",
        "region": "finnmark",
        "municipality": "båtsfjord",
        "lat": "70.6033",
        "long": "29.7851"
    },
    {
        "id": "286",
        "city": "vardø",
        "region": "finnmark",
        "municipality": "vardø",
        "lat": "70.3767",
        "long": "31.0784"
    },
    {
        "id": "287",
        "city": "svartnes",
        "region": "finnmark",
        "municipality": "vardø",
        "lat": "70.3341",
        "long": "30.6284"
    },
    {
        "id": "288",
        "city": "kiberg",
        "region": "finnmark",
        "municipality": "vardø",
        "lat": "70.2659",
        "long": "30.7557"
    },
    {
        "id": "289",
        "city": "varangerbotn",
        "region": "finnmark",
        "municipality": "unjargga nesseby",
        "lat": "70.1399",
        "long": "28.7387"
    },
    {
        "id": "290",
        "city": "kristiansund n",
        "region": "møre og romsdal",
        "municipality": "kristiansund",
        "lat": "63.0243",
        "long": "7.8065"
    },
    {
        "id": "291",
        "city": "frei",
        "region": "møre og romsdal",
        "municipality": "kristiansund",
        "lat": "63.0243",
        "long": "7.8065"
    },
    {
        "id": "292",
        "city": "vistdal",
        "region": "møre og romsdal",
        "municipality": "molde",
        "lat": "62.6745",
        "long": "7.5646"
    },
    {
        "id": "293",
        "city": "molde",
        "region": "møre og romsdal",
        "municipality": "molde",
        "lat": "62.7375",
        "long": "7.1591"
    },
    {
        "id": "294",
        "city": "sekken",
        "region": "møre og romsdal",
        "municipality": "molde",
        "lat": "62.7375",
        "long": "7.1591"
    },
    {
        "id": "295",
        "city": "hjelset",
        "region": "møre og romsdal",
        "municipality": "molde",
        "lat": "62.7805",
        "long": "7.4928"
    },
    {
        "id": "296",
        "city": "kleive",
        "region": "møre og romsdal",
        "municipality": "molde",
        "lat": "62.7952",
        "long": "7.6369"
    },
    {
        "id": "297",
        "city": "kortgarden",
        "region": "møre og romsdal",
        "municipality": "molde",
        "lat": "62.7775",
        "long": "7.6199"
    },
    {
        "id": "298",
        "city": "skåla",
        "region": "møre og romsdal",
        "municipality": "molde",
        "lat": "62.7766",
        "long": "7.5345"
    },
    {
        "id": "299",
        "city": "bolsøya",
        "region": "møre og romsdal",
        "municipality": "molde",
        "lat": "62.7307",
        "long": "7.3275"
    },
    {
        "id": "300",
        "city": "eidsvåg i romsdal",
        "region": "møre og romsdal",
        "municipality": "molde",
        "lat": "62.837",
        "long": "8.1246"
    },
    {
        "id": "301",
        "city": "raudsand",
        "region": "møre og romsdal",
        "municipality": "molde",
        "lat": "62.837",
        "long": "8.1246"
    },
    {
        "id": "302",
        "city": "eresfjord",
        "region": "møre og romsdal",
        "municipality": "molde",
        "lat": "62.6739",
        "long": "6.6741"
    },
    {
        "id": "303",
        "city": "eikesdal",
        "region": "møre og romsdal",
        "municipality": "molde",
        "lat": "62.6739",
        "long": "6.6741"
    },
    {
        "id": "304",
        "city": "midsund",
        "region": "møre og romsdal",
        "municipality": "molde",
        "lat": "62.6739",
        "long": "6.6741"
    },
    {
        "id": "305",
        "city": "ålesund",
        "region": "møre og romsdal",
        "municipality": "ålesund",
        "lat": "62.4723",
        "long": "6.1549"
    },
    {
        "id": "306",
        "city": "ellingsøy",
        "region": "møre og romsdal",
        "municipality": "ålesund",
        "lat": "62.5006",
        "long": "6.0252"
    },
    {
        "id": "307",
        "city": "ørskog",
        "region": "møre og romsdal",
        "municipality": "ålesund",
        "lat": "62.4355",
        "long": "6.734"
    },
    {
        "id": "308",
        "city": "skodje",
        "region": "møre og romsdal",
        "municipality": "ålesund",
        "lat": "62.5047",
        "long": "6.6932"
    },
    {
        "id": "309",
        "city": "harøy",
        "region": "møre og romsdal",
        "municipality": "ålesund",
        "lat": "62.5645",
        "long": "6.4153"
    },
    {
        "id": "310",
        "city": "myklebost",
        "region": "møre og romsdal",
        "municipality": "ålesund",
        "lat": "62.7319",
        "long": "6.4486"
    },
    {
        "id": "311",
        "city": "sandøy",
        "region": "møre og romsdal",
        "municipality": "ålesund",
        "lat": "62.6994",
        "long": "6.3364"
    },
    {
        "id": "312",
        "city": "ona",
        "region": "møre og romsdal",
        "municipality": "ålesund",
        "lat": "62.8667",
        "long": "6.5667"
    },
    {
        "id": "313",
        "city": "syvde",
        "region": "møre og romsdal",
        "municipality": "vanylven",
        "lat": "62.143",
        "long": "5.814"
    },
    {
        "id": "314",
        "city": "fiskå",
        "region": "møre og romsdal",
        "municipality": "vanylven",
        "lat": "62.1006",
        "long": "5.5579"
    },
    {
        "id": "315",
        "city": "rovde",
        "region": "møre og romsdal",
        "municipality": "vanylven",
        "lat": "62.1786",
        "long": "5.751"
    },
    {
        "id": "316",
        "city": "eidså",
        "region": "møre og romsdal",
        "municipality": "vanylven",
        "lat": "62.1148",
        "long": "5.6719"
    },
    {
        "id": "317",
        "city": "sylte",
        "region": "møre og romsdal",
        "municipality": "vanylven",
        "lat": "62.0536",
        "long": "5.6227"
    },
    {
        "id": "318",
        "city": "åheim",
        "region": "møre og romsdal",
        "municipality": "vanylven",
        "lat": "62.0338",
        "long": "5.5355"
    },
    {
        "id": "319",
        "city": "åram",
        "region": "møre og romsdal",
        "municipality": "vanylven",
        "lat": "62.1918",
        "long": "5.5019"
    },
    {
        "id": "320",
        "city": "gjerdsvika",
        "region": "møre og romsdal",
        "municipality": "sande",
        "lat": "62.2578",
        "long": "5.5843"
    },
    {
        "id": "321",
        "city": "gursken",
        "region": "møre og romsdal",
        "municipality": "sande",
        "lat": "62.2362",
        "long": "5.5801"
    },
    {
        "id": "322",
        "city": "larsnes",
        "region": "møre og romsdal",
        "municipality": "sande",
        "lat": "62.2028",
        "long": "5.5773"
    },
    {
        "id": "323",
        "city": "kvamsøy",
        "region": "møre og romsdal",
        "municipality": "sande",
        "lat": "62.2362",
        "long": "5.5801"
    },
    {
        "id": "324",
        "city": "sandshamn",
        "region": "møre og romsdal",
        "municipality": "sande",
        "lat": "62.2514",
        "long": "5.4792"
    },
    {
        "id": "325",
        "city": "tjørvåg",
        "region": "møre og romsdal",
        "municipality": "herøy (møre og romsdal)",
        "lat": "62.2832",
        "long": "5.7308"
    },
    {
        "id": "326",
        "city": "moltustranda",
        "region": "møre og romsdal",
        "municipality": "herøy (møre og romsdal)",
        "lat": "62.264",
        "long": "5.6996"
    },
    {
        "id": "327",
        "city": "gurskøy",
        "region": "møre og romsdal",
        "municipality": "herøy (møre og romsdal)",
        "lat": "62.2509",
        "long": "5.7836"
    },
    {
        "id": "328",
        "city": "fosnavåg",
        "region": "møre og romsdal",
        "municipality": "herøy (møre og romsdal)",
        "lat": "62.3419",
        "long": "5.634"
    },
    {
        "id": "329",
        "city": "leinøy",
        "region": "møre og romsdal",
        "municipality": "herøy (møre og romsdal)",
        "lat": "62.3543",
        "long": "5.6318"
    },
    {
        "id": "330",
        "city": "bølandet",
        "region": "møre og romsdal",
        "municipality": "herøy (møre og romsdal)",
        "lat": "62.3543",
        "long": "5.6318"
    },
    {
        "id": "331",
        "city": "runde",
        "region": "møre og romsdal",
        "municipality": "herøy (møre og romsdal)",
        "lat": "62.4037",
        "long": "5.6234"
    },
    {
        "id": "332",
        "city": "nerlandsøy",
        "region": "møre og romsdal",
        "municipality": "herøy (møre og romsdal)",
        "lat": "62.3543",
        "long": "5.6318"
    },
    {
        "id": "333",
        "city": "haddal",
        "region": "møre og romsdal",
        "municipality": "ulstein",
        "lat": "62.2821",
        "long": "5.8689"
    },
    {
        "id": "334",
        "city": "ulsteinvik",
        "region": "møre og romsdal",
        "municipality": "ulstein",
        "lat": "62.3432",
        "long": "5.8487"
    },
    {
        "id": "335",
        "city": "eiksund",
        "region": "møre og romsdal",
        "municipality": "ulstein",
        "lat": "62.2667",
        "long": "5.9333"
    },
    {
        "id": "336",
        "city": "hareid",
        "region": "møre og romsdal",
        "municipality": "hareid",
        "lat": "62.3704",
        "long": "6.029"
    },
    {
        "id": "337",
        "city": "brandal",
        "region": "møre og romsdal",
        "municipality": "hareid",
        "lat": "62.4008",
        "long": "6.0083"
    },
    {
        "id": "338",
        "city": "hjørungavåg",
        "region": "møre og romsdal",
        "municipality": "hareid",
        "lat": "62.3527",
        "long": "6.0718"
    },
    {
        "id": "339",
        "city": "ørsta",
        "region": "møre og romsdal",
        "municipality": "ørsta",
        "lat": "62.1998",
        "long": "6.129"
    },
    {
        "id": "340",
        "city": "hovdebygda",
        "region": "møre og romsdal",
        "municipality": "ørsta",
        "lat": "62.1895",
        "long": "6.0632"
    },
    {
        "id": "341",
        "city": "sæbø",
        "region": "møre og romsdal",
        "municipality": "ørsta",
        "lat": "62.2076",
        "long": "6.4759"
    },
    {
        "id": "342",
        "city": "vartdal",
        "region": "møre og romsdal",
        "municipality": "ørsta",
        "lat": "62.3005",
        "long": "6.0822"
    },
    {
        "id": "343",
        "city": "barstadvik",
        "region": "møre og romsdal",
        "municipality": "ørsta",
        "lat": "62.3598",
        "long": "6.2679"
    },
    {
        "id": "344",
        "city": "trandal",
        "region": "møre og romsdal",
        "municipality": "ørsta",
        "lat": "62.2642",
        "long": "6.5025"
    },
    {
        "id": "345",
        "city": "storestandal",
        "region": "møre og romsdal",
        "municipality": "ørsta",
        "lat": "62.2642",
        "long": "6.5025"
    },
    {
        "id": "346",
        "city": "norangsfjorden",
        "region": "møre og romsdal",
        "municipality": "ørsta",
        "lat": "62.1015",
        "long": "6.5569"
    },
    {
        "id": "347",
        "city": "stranda",
        "region": "møre og romsdal",
        "municipality": "stranda",
        "lat": "62.3086",
        "long": "6.9372"
    },
    {
        "id": "348",
        "city": "liabygda",
        "region": "møre og romsdal",
        "municipality": "stranda",
        "lat": "62.1338",
        "long": "6.9817"
    },
    {
        "id": "349",
        "city": "geiranger",
        "region": "møre og romsdal",
        "municipality": "stranda",
        "lat": "62.1019",
        "long": "7.2072"
    },
    {
        "id": "350",
        "city": "hellesylt",
        "region": "møre og romsdal",
        "municipality": "stranda",
        "lat": "62.0855",
        "long": "6.8677"
    },
    {
        "id": "351",
        "city": "straumgjerde",
        "region": "møre og romsdal",
        "municipality": "sykkylven",
        "lat": "62.3352",
        "long": "6.5936"
    },
    {
        "id": "352",
        "city": "ikornnes",
        "region": "møre og romsdal",
        "municipality": "sykkylven",
        "lat": "62.3863",
        "long": "6.5509"
    },
    {
        "id": "353",
        "city": "hundeidvik",
        "region": "møre og romsdal",
        "municipality": "sykkylven",
        "lat": "62.3668",
        "long": "6.4242"
    },
    {
        "id": "354",
        "city": "sykkylven",
        "region": "møre og romsdal",
        "municipality": "sykkylven",
        "lat": "62.3959",
        "long": "6.5875"
    },
    {
        "id": "355",
        "city": "langevåg",
        "region": "møre og romsdal",
        "municipality": "sula",
        "lat": "62.4408",
        "long": "6.1914"
    },
    {
        "id": "356",
        "city": "eidsnes",
        "region": "møre og romsdal",
        "municipality": "sula",
        "lat": "62.4346",
        "long": "6.2182"
    },
    {
        "id": "357",
        "city": "fiskarstrand",
        "region": "møre og romsdal",
        "municipality": "sula",
        "lat": "62.4346",
        "long": "6.2182"
    },
    {
        "id": "358",
        "city": "mauseidvåg",
        "region": "møre og romsdal",
        "municipality": "sula",
        "lat": "62.422",
        "long": "6.272"
    },
    {
        "id": "359",
        "city": "vigra",
        "region": "møre og romsdal",
        "municipality": "giske",
        "lat": "62.564",
        "long": "6.0777"
    },
    {
        "id": "360",
        "city": "valderøya",
        "region": "møre og romsdal",
        "municipality": "giske",
        "lat": "62.5006",
        "long": "6.0252"
    },
    {
        "id": "361",
        "city": "giske",
        "region": "møre og romsdal",
        "municipality": "giske",
        "lat": "62.5006",
        "long": "6.0252"
    },
    {
        "id": "362",
        "city": "godøya",
        "region": "møre og romsdal",
        "municipality": "giske",
        "lat": "62.4689",
        "long": "5.9989"
    },
    {
        "id": "363",
        "city": "vågstranda",
        "region": "møre og romsdal",
        "municipality": "vestnes",
        "lat": "62.5643",
        "long": "7.247"
    },
    {
        "id": "364",
        "city": "fiksdal",
        "region": "møre og romsdal",
        "municipality": "vestnes",
        "lat": "62.6167",
        "long": "6.8667"
    },
    {
        "id": "365",
        "city": "vestnes",
        "region": "møre og romsdal",
        "municipality": "vestnes",
        "lat": "62.6254",
        "long": "7.087"
    },
    {
        "id": "366",
        "city": "tresfjord",
        "region": "møre og romsdal",
        "municipality": "vestnes",
        "lat": "62.5224",
        "long": "7.1313"
    },
    {
        "id": "367",
        "city": "vikebukt",
        "region": "møre og romsdal",
        "municipality": "vestnes",
        "lat": "62.6161",
        "long": "7.1488"
    },
    {
        "id": "368",
        "city": "tomrefjord",
        "region": "møre og romsdal",
        "municipality": "vestnes",
        "lat": "62.5812",
        "long": "6.9311"
    },
    {
        "id": "369",
        "city": "rekdal",
        "region": "møre og romsdal",
        "municipality": "vestnes",
        "lat": "62.6504",
        "long": "6.7586"
    },
    {
        "id": "370",
        "city": "åndalsnes",
        "region": "møre og romsdal",
        "municipality": "rauma",
        "lat": "62.5675",
        "long": "7.6871"
    },
    {
        "id": "371",
        "city": "veblungsnes",
        "region": "møre og romsdal",
        "municipality": "rauma",
        "lat": "62.5532",
        "long": "7.664"
    },
    {
        "id": "372",
        "city": "innfjorden",
        "region": "møre og romsdal",
        "municipality": "rauma",
        "lat": "62.5532",
        "long": "7.664"
    },
    {
        "id": "373",
        "city": "isfjorden",
        "region": "møre og romsdal",
        "municipality": "rauma",
        "lat": "62.5778",
        "long": "7.7923"
    },
    {
        "id": "374",
        "city": "verma",
        "region": "møre og romsdal",
        "municipality": "rauma",
        "lat": "62.5778",
        "long": "7.7923"
    },
    {
        "id": "375",
        "city": "eidsbygda",
        "region": "møre og romsdal",
        "municipality": "rauma",
        "lat": "62.585",
        "long": "7.495"
    },
    {
        "id": "376",
        "city": "åfarnes",
        "region": "møre og romsdal",
        "municipality": "rauma",
        "lat": "62.6616",
        "long": "7.5013"
    },
    {
        "id": "377",
        "city": "mittet",
        "region": "møre og romsdal",
        "municipality": "rauma",
        "lat": "62.7001",
        "long": "7.6911"
    },
    {
        "id": "378",
        "city": "måndalen",
        "region": "møre og romsdal",
        "municipality": "rauma",
        "lat": "62.5382",
        "long": "7.4372"
    },
    {
        "id": "379",
        "city": "orten",
        "region": "møre og romsdal",
        "municipality": "aukra",
        "lat": "62.5645",
        "long": "6.4153"
    },
    {
        "id": "380",
        "city": "aukra",
        "region": "møre og romsdal",
        "municipality": "aukra",
        "lat": "62.7833",
        "long": "6.9"
    },
    {
        "id": "381",
        "city": "averøy",
        "region": "møre og romsdal",
        "municipality": "averøy",
        "lat": "63.0243",
        "long": "7.8065"
    },
    {
        "id": "382",
        "city": "batnfjordsøra",
        "region": "møre og romsdal",
        "municipality": "gjemnes",
        "lat": "62.8946",
        "long": "7.6725"
    },
    {
        "id": "383",
        "city": "gjemnes",
        "region": "møre og romsdal",
        "municipality": "gjemnes",
        "lat": "62.9123",
        "long": "7.9282"
    },
    {
        "id": "384",
        "city": "angvik",
        "region": "møre og romsdal",
        "municipality": "gjemnes",
        "lat": "62.8922",
        "long": "8.086"
    },
    {
        "id": "385",
        "city": "flemma",
        "region": "møre og romsdal",
        "municipality": "gjemnes",
        "lat": "62.9357",
        "long": "8.0752"
    },
    {
        "id": "386",
        "city": "osmarka",
        "region": "møre og romsdal",
        "municipality": "gjemnes",
        "lat": "62.9123",
        "long": "7.9282"
    },
    {
        "id": "387",
        "city": "torvikbukt",
        "region": "møre og romsdal",
        "municipality": "gjemnes",
        "lat": "62.9436",
        "long": "7.8574"
    },
    {
        "id": "388",
        "city": "tingvoll",
        "region": "møre og romsdal",
        "municipality": "tingvoll",
        "lat": "62.9132",
        "long": "8.2053"
    },
    {
        "id": "389",
        "city": "meisingset",
        "region": "møre og romsdal",
        "municipality": "tingvoll",
        "lat": "62.8522",
        "long": "8.2894"
    },
    {
        "id": "390",
        "city": "torjulvågen",
        "region": "møre og romsdal",
        "municipality": "tingvoll",
        "lat": "62.8827",
        "long": "8.2473"
    },
    {
        "id": "391",
        "city": "øydegard",
        "region": "møre og romsdal",
        "municipality": "tingvoll",
        "lat": "63.0665",
        "long": "7.9883"
    },
    {
        "id": "392",
        "city": "kvisvik",
        "region": "møre og romsdal",
        "municipality": "tingvoll",
        "lat": "63.0665",
        "long": "7.9883"
    },
    {
        "id": "393",
        "city": "sunndalsøra",
        "region": "møre og romsdal",
        "municipality": "sunndal",
        "lat": "62.6752",
        "long": "8.5633"
    },
    {
        "id": "394",
        "city": "øksendal",
        "region": "møre og romsdal",
        "municipality": "sunndal",
        "lat": "62.7183",
        "long": "8.4311"
    },
    {
        "id": "395",
        "city": "furugrenda",
        "region": "møre og romsdal",
        "municipality": "sunndal",
        "lat": "62.6149",
        "long": "8.8452"
    },
    {
        "id": "396",
        "city": "grøa",
        "region": "møre og romsdal",
        "municipality": "sunndal",
        "lat": "62.6438",
        "long": "8.7246"
    },
    {
        "id": "397",
        "city": "gjøra",
        "region": "møre og romsdal",
        "municipality": "sunndal",
        "lat": "62.5488",
        "long": "9.1124"
    },
    {
        "id": "398",
        "city": "ålvundeid",
        "region": "møre og romsdal",
        "municipality": "sunndal",
        "lat": "62.8827",
        "long": "8.2473"
    },
    {
        "id": "399",
        "city": "ålvundfjord",
        "region": "møre og romsdal",
        "municipality": "sunndal",
        "lat": "62.8827",
        "long": "8.2473"
    },
    {
        "id": "400",
        "city": "kvanne",
        "region": "møre og romsdal",
        "municipality": "surnadal",
        "lat": "62.8899",
        "long": "8.5271"
    },
    {
        "id": "401",
        "city": "stangvik",
        "region": "møre og romsdal",
        "municipality": "surnadal",
        "lat": "62.9169",
        "long": "8.4718"
    },
    {
        "id": "402",
        "city": "bøfjorden",
        "region": "møre og romsdal",
        "municipality": "surnadal",
        "lat": "63.0197",
        "long": "8.3651"
    },
    {
        "id": "403",
        "city": "bæverfjord",
        "region": "møre og romsdal",
        "municipality": "surnadal",
        "lat": "63.0248",
        "long": "8.5926"
    },
    {
        "id": "404",
        "city": "todalen",
        "region": "møre og romsdal",
        "municipality": "surnadal",
        "lat": "62.9206",
        "long": "8.8633"
    },
    {
        "id": "405",
        "city": "surnadal",
        "region": "møre og romsdal",
        "municipality": "surnadal",
        "lat": "62.974",
        "long": "8.7247"
    },
    {
        "id": "406",
        "city": "øvre surnadal",
        "region": "møre og romsdal",
        "municipality": "surnadal",
        "lat": "63.0066",
        "long": "8.9194"
    },
    {
        "id": "407",
        "city": "vindøla",
        "region": "møre og romsdal",
        "municipality": "surnadal",
        "lat": "63.0066",
        "long": "8.9194"
    },
    {
        "id": "408",
        "city": "smøla",
        "region": "møre og romsdal",
        "municipality": "smøla",
        "lat": "63.0243",
        "long": "7.8065"
    },
    {
        "id": "409",
        "city": "tustna",
        "region": "møre og romsdal",
        "municipality": "aure",
        "lat": "63.0243",
        "long": "7.8065"
    },
    {
        "id": "410",
        "city": "aure",
        "region": "møre og romsdal",
        "municipality": "aure",
        "lat": "63.2679",
        "long": "8.5291"
    },
    {
        "id": "411",
        "city": "mjosundet",
        "region": "møre og romsdal",
        "municipality": "aure",
        "lat": "63.227",
        "long": "8.5137"
    },
    {
        "id": "412",
        "city": "foldfjorden",
        "region": "møre og romsdal",
        "municipality": "aure",
        "lat": "63.319",
        "long": "8.5886"
    },
    {
        "id": "413",
        "city": "vihals",
        "region": "møre og romsdal",
        "municipality": "aure",
        "lat": "63.35",
        "long": "8.6833"
    },
    {
        "id": "414",
        "city": "lesund",
        "region": "møre og romsdal",
        "municipality": "aure",
        "lat": "63.3333",
        "long": "8.4833"
    },
    {
        "id": "415",
        "city": "kjørsvikbugen",
        "region": "møre og romsdal",
        "municipality": "aure",
        "lat": "63.4167",
        "long": "8.7333"
    },
    {
        "id": "416",
        "city": "volda",
        "region": "møre og romsdal",
        "municipality": "volda",
        "lat": "62.146",
        "long": "6.0711"
    },
    {
        "id": "417",
        "city": "austefjorden",
        "region": "møre og romsdal",
        "municipality": "volda",
        "lat": "62.169",
        "long": "6.0187"
    },
    {
        "id": "418",
        "city": "folkestad",
        "region": "møre og romsdal",
        "municipality": "volda",
        "lat": "62.1188",
        "long": "6.0332"
    },
    {
        "id": "419",
        "city": "lauvstad",
        "region": "møre og romsdal",
        "municipality": "volda",
        "lat": "62.1641",
        "long": "5.9421"
    },
    {
        "id": "420",
        "city": "bjørke",
        "region": "møre og romsdal",
        "municipality": "volda",
        "lat": "62.044",
        "long": "6.2222"
    },
    {
        "id": "421",
        "city": "hornindal",
        "region": "møre og romsdal",
        "municipality": "volda",
        "lat": "61.9692",
        "long": "6.5242"
    },
    {
        "id": "422",
        "city": "valldal",
        "region": "møre og romsdal",
        "municipality": "fjord",
        "lat": "62.2978",
        "long": "7.2637"
    },
    {
        "id": "423",
        "city": "tafjord",
        "region": "møre og romsdal",
        "municipality": "fjord",
        "lat": "62.2324",
        "long": "7.4177"
    },
    {
        "id": "424",
        "city": "norddal",
        "region": "møre og romsdal",
        "municipality": "fjord",
        "lat": "62.2521",
        "long": "7.2381"
    },
    {
        "id": "425",
        "city": "eidsdal",
        "region": "møre og romsdal",
        "municipality": "fjord",
        "lat": "62.2626",
        "long": "7.1718"
    },
    {
        "id": "426",
        "city": "stordal",
        "region": "møre og romsdal",
        "municipality": "fjord",
        "lat": "62.382",
        "long": "6.9863"
    },
    {
        "id": "427",
        "city": "aureosen",
        "region": "møre og romsdal",
        "municipality": "hustadvika",
        "lat": "62.8139",
        "long": "7.1008"
    },
    {
        "id": "428",
        "city": "bud",
        "region": "møre og romsdal",
        "municipality": "hustadvika",
        "lat": "62.9071",
        "long": "6.9141"
    },
    {
        "id": "429",
        "city": "hustad",
        "region": "møre og romsdal",
        "municipality": "hustadvika",
        "lat": "62.954",
        "long": "7.095"
    },
    {
        "id": "430",
        "city": "elnesvågen",
        "region": "møre og romsdal",
        "municipality": "hustadvika",
        "lat": "62.8543",
        "long": "7.1377"
    },
    {
        "id": "431",
        "city": "tornes i romsdal",
        "region": "møre og romsdal",
        "municipality": "hustadvika",
        "lat": "62.8417",
        "long": "7.0298"
    },
    {
        "id": "432",
        "city": "farstad",
        "region": "møre og romsdal",
        "municipality": "hustadvika",
        "lat": "62.975",
        "long": "7.1615"
    },
    {
        "id": "433",
        "city": "malmefjorden",
        "region": "møre og romsdal",
        "municipality": "hustadvika",
        "lat": "62.8151",
        "long": "7.2432"
    },
    {
        "id": "434",
        "city": "eide",
        "region": "møre og romsdal",
        "municipality": "hustadvika",
        "lat": "62.9173",
        "long": "7.4467"
    },
    {
        "id": "435",
        "city": "lyngstad",
        "region": "møre og romsdal",
        "municipality": "hustadvika",
        "lat": "62.9612",
        "long": "7.367"
    },
    {
        "id": "436",
        "city": "vevang",
        "region": "møre og romsdal",
        "municipality": "hustadvika",
        "lat": "63.0028",
        "long": "7.2884"
    },
    {
        "id": "437",
        "city": "tennfjord",
        "region": "møre og romsdal",
        "municipality": "haram",
        "lat": "62.5336",
        "long": "6.5896"
    },
    {
        "id": "438",
        "city": "vatne",
        "region": "møre og romsdal",
        "municipality": "haram",
        "lat": "62.5583",
        "long": "6.6171"
    },
    {
        "id": "439",
        "city": "brattvåg",
        "region": "møre og romsdal",
        "municipality": "haram",
        "lat": "62.5999",
        "long": "6.4443"
    },
    {
        "id": "440",
        "city": "hildre",
        "region": "møre og romsdal",
        "municipality": "haram",
        "lat": "62.6038",
        "long": "6.3338"
    },
    {
        "id": "441",
        "city": "søvik",
        "region": "møre og romsdal",
        "municipality": "haram",
        "lat": "62.55",
        "long": "6.3"
    },
    {
        "id": "442",
        "city": "storekalvøy",
        "region": "møre og romsdal",
        "municipality": "haram",
        "lat": "62.5645",
        "long": "6.4153"
    },
    {
        "id": "443",
        "city": "haramsøy",
        "region": "møre og romsdal",
        "municipality": "haram",
        "lat": "62.6578",
        "long": "6.2409"
    },
    {
        "id": "444",
        "city": "kjerstad",
        "region": "møre og romsdal",
        "municipality": "haram",
        "lat": "62.617",
        "long": "6.217"
    },
    {
        "id": "445",
        "city": "longva",
        "region": "møre og romsdal",
        "municipality": "haram",
        "lat": "62.6647",
        "long": "6.2742"
    },
    {
        "id": "446",
        "city": "fjørtoft",
        "region": "møre og romsdal",
        "municipality": "haram",
        "lat": "62.7",
        "long": "6.3667"
    },
    {
        "id": "447",
        "city": "bodø",
        "region": "nordland",
        "municipality": "bodø",
        "lat": "67.28",
        "long": "14.405"
    },
    {
        "id": "448",
        "city": "tverlandet",
        "region": "nordland",
        "municipality": "bodø",
        "lat": "67.2333",
        "long": "14.6333"
    },
    {
        "id": "449",
        "city": "saltstraumen",
        "region": "nordland",
        "municipality": "bodø",
        "lat": "67.2333",
        "long": "14.6333"
    },
    {
        "id": "450",
        "city": "kjerringøy",
        "region": "nordland",
        "municipality": "bodø",
        "lat": "67.5195",
        "long": "14.7643"
    },
    {
        "id": "451",
        "city": "helligvær",
        "region": "nordland",
        "municipality": "bodø",
        "lat": "67.4167",
        "long": "13.9333"
    },
    {
        "id": "452",
        "city": "bliksvær",
        "region": "nordland",
        "municipality": "bodø",
        "lat": "67.2772",
        "long": "14.0036"
    },
    {
        "id": "453",
        "city": "givær",
        "region": "nordland",
        "municipality": "bodø",
        "lat": "67.3547",
        "long": "14.3022"
    },
    {
        "id": "454",
        "city": "landegode",
        "region": "nordland",
        "municipality": "bodø",
        "lat": "67.3547",
        "long": "14.3022"
    },
    {
        "id": "455",
        "city": "misvær",
        "region": "nordland",
        "municipality": "bodø",
        "lat": "67.1187",
        "long": "14.9992"
    },
    {
        "id": "456",
        "city": "skjerstad",
        "region": "nordland",
        "municipality": "bodø",
        "lat": "67.2341",
        "long": "15.0153"
    },
    {
        "id": "457",
        "city": "breivik i salten",
        "region": "nordland",
        "municipality": "bodø",
        "lat": "67.2075",
        "long": "15.1588"
    },
    {
        "id": "458",
        "city": "storå",
        "region": "nordland",
        "municipality": "narvik",
        "lat": "68.0728",
        "long": "16.3897"
    },
    {
        "id": "459",
        "city": "narvik",
        "region": "nordland",
        "municipality": "narvik",
        "lat": "68.4384",
        "long": "17.4272"
    },
    {
        "id": "460",
        "city": "ankenes",
        "region": "nordland",
        "municipality": "narvik",
        "lat": "68.4206",
        "long": "17.3782"
    },
    {
        "id": "461",
        "city": "beisfjord",
        "region": "nordland",
        "municipality": "narvik",
        "lat": "68.3762",
        "long": "17.596"
    },
    {
        "id": "462",
        "city": "skjomen",
        "region": "nordland",
        "municipality": "narvik",
        "lat": "68.1878",
        "long": "17.3175"
    },
    {
        "id": "463",
        "city": "bjerkvik",
        "region": "nordland",
        "municipality": "narvik",
        "lat": "68.5492",
        "long": "17.5571"
    },
    {
        "id": "464",
        "city": "ballangen",
        "region": "nordland",
        "municipality": "narvik",
        "lat": "68.3428",
        "long": "16.8315"
    },
    {
        "id": "465",
        "city": "kjeldebotn",
        "region": "nordland",
        "municipality": "narvik",
        "lat": "68.4064",
        "long": "16.6561"
    },
    {
        "id": "466",
        "city": "kjøpsvik",
        "region": "nordland",
        "municipality": "narvik",
        "lat": "68.097",
        "long": "16.3742"
    },
    {
        "id": "467",
        "city": "terråk",
        "region": "nordland",
        "municipality": "bindal",
        "lat": "65.087",
        "long": "12.3715"
    },
    {
        "id": "468",
        "city": "harangsfjord",
        "region": "nordland",
        "municipality": "bindal",
        "lat": "65.0534",
        "long": "12.2379"
    },
    {
        "id": "469",
        "city": "bindalseidet",
        "region": "nordland",
        "municipality": "bindal",
        "lat": "65.1272",
        "long": "12.2312"
    },
    {
        "id": "470",
        "city": "sømna",
        "region": "nordland",
        "municipality": "sømna",
        "lat": "65.3167",
        "long": "12.1667"
    },
    {
        "id": "471",
        "city": "brønnøysund",
        "region": "nordland",
        "municipality": "brønnøy",
        "lat": "65.4749",
        "long": "12.2128"
    },
    {
        "id": "472",
        "city": "velfjord",
        "region": "nordland",
        "municipality": "brønnøy",
        "lat": "65.4831",
        "long": "12.2296"
    },
    {
        "id": "473",
        "city": "vega",
        "region": "nordland",
        "municipality": "vega",
        "lat": "65.636",
        "long": "12.1716"
    },
    {
        "id": "474",
        "city": "ylvingen",
        "region": "nordland",
        "municipality": "vega",
        "lat": "65.636",
        "long": "12.1716"
    },
    {
        "id": "475",
        "city": "visthus",
        "region": "nordland",
        "municipality": "vevelstad",
        "lat": "65.7252",
        "long": "12.5981"
    },
    {
        "id": "476",
        "city": "vevelstad",
        "region": "nordland",
        "municipality": "vevelstad",
        "lat": "65.6978",
        "long": "12.4371"
    },
    {
        "id": "477",
        "city": "brasøy",
        "region": "nordland",
        "municipality": "herøy (nordland)",
        "lat": "65.9768",
        "long": "12.6461"
    },
    {
        "id": "478",
        "city": "sandvær",
        "region": "nordland",
        "municipality": "herøy (nordland)",
        "lat": "65.9768",
        "long": "12.6461"
    },
    {
        "id": "479",
        "city": "herøy",
        "region": "nordland",
        "municipality": "herøy (nordland)",
        "lat": "65.9334",
        "long": "12.3529"
    },
    {
        "id": "480",
        "city": "sandnessjøen",
        "region": "nordland",
        "municipality": "alstahaug",
        "lat": "66.0217",
        "long": "12.6316"
    },
    {
        "id": "481",
        "city": "austbø",
        "region": "nordland",
        "municipality": "alstahaug",
        "lat": "65.9334",
        "long": "12.3529"
    },
    {
        "id": "482",
        "city": "tjøtta",
        "region": "nordland",
        "municipality": "alstahaug",
        "lat": "65.8226",
        "long": "12.4284"
    },
    {
        "id": "483",
        "city": "tro",
        "region": "nordland",
        "municipality": "alstahaug",
        "lat": "65.7976",
        "long": "12.5397"
    },
    {
        "id": "484",
        "city": "bærøyvågen",
        "region": "nordland",
        "municipality": "alstahaug",
        "lat": "65.8694",
        "long": "12.6181"
    },
    {
        "id": "485",
        "city": "leirfjord",
        "region": "nordland",
        "municipality": "leirfjord",
        "lat": "66.094",
        "long": "13.0727"
    },
    {
        "id": "486",
        "city": "sundøy",
        "region": "nordland",
        "municipality": "leirfjord",
        "lat": "66.1057",
        "long": "13.0823"
    },
    {
        "id": "487",
        "city": "bardal",
        "region": "nordland",
        "municipality": "leirfjord",
        "lat": "66.217",
        "long": "13.3802"
    },
    {
        "id": "488",
        "city": "mosjøen",
        "region": "nordland",
        "municipality": "vefsn",
        "lat": "65.836",
        "long": "13.1908"
    },
    {
        "id": "489",
        "city": "elsfjord",
        "region": "nordland",
        "municipality": "vefsn",
        "lat": "66.1039",
        "long": "13.5523"
    },
    {
        "id": "490",
        "city": "trofors",
        "region": "nordland",
        "municipality": "grane",
        "lat": "65.5333",
        "long": "13.4063"
    },
    {
        "id": "491",
        "city": "hattfjelldal",
        "region": "nordland",
        "municipality": "hattfjelldal",
        "lat": "65.5974",
        "long": "13.9879"
    },
    {
        "id": "492",
        "city": "løkta",
        "region": "nordland",
        "municipality": "dønna",
        "lat": "65.9768",
        "long": "12.6461"
    },
    {
        "id": "493",
        "city": "dønna",
        "region": "nordland",
        "municipality": "dønna",
        "lat": "65.9768",
        "long": "12.6461"
    },
    {
        "id": "494",
        "city": "vandve",
        "region": "nordland",
        "municipality": "dønna",
        "lat": "66.1667",
        "long": "12.35"
    },
    {
        "id": "495",
        "city": "nesna",
        "region": "nordland",
        "municipality": "nesna",
        "lat": "66.1982",
        "long": "13.0184"
    },
    {
        "id": "496",
        "city": "nesnastranda",
        "region": "nordland",
        "municipality": "nesna",
        "lat": "66.1982",
        "long": "13.0184"
    },
    {
        "id": "497",
        "city": "strandlandet",
        "region": "nordland",
        "municipality": "nesna",
        "lat": "66.1982",
        "long": "13.0184"
    },
    {
        "id": "498",
        "city": "vikholmen",
        "region": "nordland",
        "municipality": "nesna",
        "lat": "66.4268",
        "long": "13.3188"
    },
    {
        "id": "499",
        "city": "husby",
        "region": "nordland",
        "municipality": "nesna",
        "lat": "66.2255",
        "long": "12.7697"
    },
    {
        "id": "500",
        "city": "saura",
        "region": "nordland",
        "municipality": "nesna",
        "lat": "66.2401",
        "long": "13.016"
    },
    {
        "id": "501",
        "city": "hemnesberget",
        "region": "nordland",
        "municipality": "hemnes",
        "lat": "66.2249",
        "long": "13.6164"
    },
    {
        "id": "502",
        "city": "finneidfjord",
        "region": "nordland",
        "municipality": "hemnes",
        "lat": "66.1878",
        "long": "13.7919"
    },
    {
        "id": "503",
        "city": "bjerka",
        "region": "nordland",
        "municipality": "hemnes",
        "lat": "66.1491",
        "long": "13.8362"
    },
    {
        "id": "504",
        "city": "korgen",
        "region": "nordland",
        "municipality": "hemnes",
        "lat": "66.0766",
        "long": "13.8216"
    },
    {
        "id": "505",
        "city": "bleikvasslia",
        "region": "nordland",
        "municipality": "hemnes",
        "lat": "65.9086",
        "long": "13.8072"
    },
    {
        "id": "506",
        "city": "mo i rana",
        "region": "nordland",
        "municipality": "rana",
        "lat": "66.3128",
        "long": "14.1428"
    },
    {
        "id": "507",
        "city": "skonseng",
        "region": "nordland",
        "municipality": "rana",
        "lat": "66.3561",
        "long": "14.3381"
    },
    {
        "id": "508",
        "city": "dalsgrenda",
        "region": "nordland",
        "municipality": "rana",
        "lat": "66.2506",
        "long": "13.9848"
    },
    {
        "id": "509",
        "city": "storforsheia",
        "region": "nordland",
        "municipality": "rana",
        "lat": "65.9936",
        "long": "13.7296"
    },
    {
        "id": "510",
        "city": "utskarpen",
        "region": "nordland",
        "municipality": "rana",
        "lat": "66.2881",
        "long": "13.6366"
    },
    {
        "id": "511",
        "city": "bratland",
        "region": "nordland",
        "municipality": "lurøy",
        "lat": "66.4",
        "long": "13.1667"
    },
    {
        "id": "512",
        "city": "aldra",
        "region": "nordland",
        "municipality": "lurøy",
        "lat": "66.4",
        "long": "13.1"
    },
    {
        "id": "513",
        "city": "stuvland",
        "region": "nordland",
        "municipality": "lurøy",
        "lat": "66.4167",
        "long": "13.05"
    },
    {
        "id": "514",
        "city": "stokkvågen",
        "region": "nordland",
        "municipality": "lurøy",
        "lat": "66.3383",
        "long": "13.0142"
    },
    {
        "id": "515",
        "city": "nord-solvær",
        "region": "nordland",
        "municipality": "lurøy",
        "lat": "66.5355",
        "long": "12.5956"
    },
    {
        "id": "516",
        "city": "indre kvarøy",
        "region": "nordland",
        "municipality": "lurøy",
        "lat": "66.4833",
        "long": "12.95"
    },
    {
        "id": "517",
        "city": "tonnes",
        "region": "nordland",
        "municipality": "lurøy",
        "lat": "66.514",
        "long": "13.0144"
    },
    {
        "id": "518",
        "city": "konsvikosen",
        "region": "nordland",
        "municipality": "lurøy",
        "lat": "66.4989",
        "long": "13.1019"
    },
    {
        "id": "519",
        "city": "sleneset",
        "region": "nordland",
        "municipality": "lurøy",
        "lat": "66.3636",
        "long": "12.6083"
    },
    {
        "id": "520",
        "city": "lovund",
        "region": "nordland",
        "municipality": "lurøy",
        "lat": "66.3688",
        "long": "12.3649"
    },
    {
        "id": "521",
        "city": "lurøy",
        "region": "nordland",
        "municipality": "lurøy",
        "lat": "66.4189",
        "long": "12.8425"
    },
    {
        "id": "522",
        "city": "selvær",
        "region": "nordland",
        "municipality": "træna",
        "lat": "66.5877",
        "long": "12.2411"
    },
    {
        "id": "523",
        "city": "træna",
        "region": "nordland",
        "municipality": "træna",
        "lat": "66.4076",
        "long": "12.9808"
    },
    {
        "id": "524",
        "city": "myken",
        "region": "nordland",
        "municipality": "rødøy",
        "lat": "66.7618",
        "long": "12.4824"
    },
    {
        "id": "525",
        "city": "melfjordbotn",
        "region": "nordland",
        "municipality": "rødøy",
        "lat": "66.5154",
        "long": "13.6767"
    },
    {
        "id": "526",
        "city": "vågaholmen",
        "region": "nordland",
        "municipality": "rødøy",
        "lat": "66.7137",
        "long": "13.2871"
    },
    {
        "id": "527",
        "city": "tjongsfjorden",
        "region": "nordland",
        "municipality": "rødøy",
        "lat": "66.6856",
        "long": "13.4504"
    },
    {
        "id": "528",
        "city": "jektvik",
        "region": "nordland",
        "municipality": "rødøy",
        "lat": "66.6849",
        "long": "13.2757"
    },
    {
        "id": "529",
        "city": "nordvernes",
        "region": "nordland",
        "municipality": "rødøy",
        "lat": "66.6849",
        "long": "13.2757"
    },
    {
        "id": "530",
        "city": "gjersvikgrenda",
        "region": "nordland",
        "municipality": "rødøy",
        "lat": "66.6849",
        "long": "13.2757"
    },
    {
        "id": "531",
        "city": "sørfjorden",
        "region": "nordland",
        "municipality": "rødøy",
        "lat": "66.4899",
        "long": "13.2911"
    },
    {
        "id": "532",
        "city": "rødøy",
        "region": "nordland",
        "municipality": "rødøy",
        "lat": "66.5712",
        "long": "13.4282"
    },
    {
        "id": "533",
        "city": "gjerøy",
        "region": "nordland",
        "municipality": "rødøy",
        "lat": "66.576",
        "long": "13.0005"
    },
    {
        "id": "534",
        "city": "selsøyvik",
        "region": "nordland",
        "municipality": "rødøy",
        "lat": "66.5732",
        "long": "12.98"
    },
    {
        "id": "535",
        "city": "storselsøy",
        "region": "nordland",
        "municipality": "rødøy",
        "lat": "66.576",
        "long": "13.0005"
    },
    {
        "id": "536",
        "city": "nordnesøy",
        "region": "nordland",
        "municipality": "rødøy",
        "lat": "66.591",
        "long": "12.6474"
    },
    {
        "id": "537",
        "city": "øresvik",
        "region": "nordland",
        "municipality": "rødøy",
        "lat": "66.4623",
        "long": "13.2265"
    },
    {
        "id": "538",
        "city": "reipå",
        "region": "nordland",
        "municipality": "meløy",
        "lat": "66.9099",
        "long": "13.637"
    },
    {
        "id": "539",
        "city": "neverdal",
        "region": "nordland",
        "municipality": "meløy",
        "lat": "66.834",
        "long": "13.7741"
    },
    {
        "id": "540",
        "city": "ørnes",
        "region": "nordland",
        "municipality": "meløy",
        "lat": "66.8688",
        "long": "13.7058"
    },
    {
        "id": "541",
        "city": "meløy",
        "region": "nordland",
        "municipality": "meløy",
        "lat": "66.8668",
        "long": "13.5223"
    },
    {
        "id": "542",
        "city": "bolga",
        "region": "nordland",
        "municipality": "meløy",
        "lat": "66.8051",
        "long": "13.2342"
    },
    {
        "id": "543",
        "city": "støtt",
        "region": "nordland",
        "municipality": "meløy",
        "lat": "66.9248",
        "long": "13.4433"
    },
    {
        "id": "544",
        "city": "glomfjord",
        "region": "nordland",
        "municipality": "meløy",
        "lat": "66.8166",
        "long": "13.944"
    },
    {
        "id": "545",
        "city": "engavågen",
        "region": "nordland",
        "municipality": "meløy",
        "lat": "66.7796",
        "long": "13.5342"
    },
    {
        "id": "546",
        "city": "halsa",
        "region": "nordland",
        "municipality": "meløy",
        "lat": "66.7432",
        "long": "13.5537"
    },
    {
        "id": "547",
        "city": "ågskardet",
        "region": "nordland",
        "municipality": "meløy",
        "lat": "66.7193",
        "long": "13.4707"
    },
    {
        "id": "548",
        "city": "fleinvær",
        "region": "nordland",
        "municipality": "gildeskål",
        "lat": "67.3547",
        "long": "14.3022"
    },
    {
        "id": "549",
        "city": "nygårdsjøen",
        "region": "nordland",
        "municipality": "gildeskål",
        "lat": "67.1108",
        "long": "14.3003"
    },
    {
        "id": "550",
        "city": "sandhornøy",
        "region": "nordland",
        "municipality": "gildeskål",
        "lat": "67.1148",
        "long": "13.9898"
    },
    {
        "id": "551",
        "city": "sørarnøy",
        "region": "nordland",
        "municipality": "gildeskål",
        "lat": "67.1363",
        "long": "13.9669"
    },
    {
        "id": "552",
        "city": "nordarnøy",
        "region": "nordland",
        "municipality": "gildeskål",
        "lat": "67.1532",
        "long": "13.9986"
    },
    {
        "id": "553",
        "city": "inndyr",
        "region": "nordland",
        "municipality": "gildeskål",
        "lat": "67.0335",
        "long": "14.0266"
    },
    {
        "id": "554",
        "city": "storvik",
        "region": "nordland",
        "municipality": "gildeskål",
        "lat": "66.9629",
        "long": "13.8082"
    },